id,name,latitude,longitude
1,Memphis TN,35.1175,-89.9711
2,Chicago IL,41.8781,-87.6298
3,Houston TX,29.7604,-95.3698
4,Los Angeles CA,34.0522,-118.2437
5,New Orleans LA,29.9511,-90.0715
6,Port Authority of NY/NJ,40.6895,-74.1745
7,Savannah GA,32.0835,-81.0998
8,Philadelphia PA,39.9526,-75.1652
9,Mobile AL,30.6954,-88.0399
10,Charleston SC,32.7765,-79.9311
